,Name,Venue ID,Lat,Lng,Category,Near Same Kind,Near Coffee Shops
0,"Books, Inc.",4bc77b370050b71392c7b83b,37.78161387913699,-122.42053066602286,Bookstore,True,True
1,Aardvark Books,4a467a5df964a520eca81fe3,37.76713050230071,-122.42890641448354,Bookstore,True,True
2,Dog Eared Books,49e79762f964a520d0641fe3,37.758445500765696,-122.4213655574246,Bookstore,True,True
3,Dog Eared Books,574f605b498ee997a05fa2d7,37.76120618584941,-122.43495870530577,Bookstore,True,True
4,City Lights Bookstore,49bc2d06f964a5201d541fe3,37.7977083118737,-122.40648879043061,Bookstore,True,True
5,The Green Arcade,4a934850f964a520701f20e3,37.773161569484635,-122.42190302991519,Bookstore,False,True
6,Alexander Book Company,4ac29d66f964a520fe9920e3,37.78867102787043,-122.40062557442468,Bookstore,True,True
7,Browser Books,49f5ebdcf964a520d46b1fe3,37.78976574653574,-122.43411125580475,Bookstore,False,True
8,Borderlands Books,4aa32a35f964a520904320e3,37.759207483617786,-122.42151048490733,Bookstore,True,True
9,The Booksmith,42a78680f964a52017251fe3,37.76982126220134,-122.44936311785642,Bookstore,True,True
10,Charlie's Corner,56195ac6498e228012dfd22d,37.75135683384734,-122.43428103519672,Bookstore,True,False
11,Alley Cat Books,4ebade6e9911053f4e3a4de7,37.75264722692837,-122.41273750835785,Bookstore,True,True
12,Kayo Books,4bc75c6a14d79521c03b67e9,37.78748714508517,-122.415261728236,Used Bookstore,True,True
13,Comix Experience,49fd4ed0f964a5201a6f1fe3,37.77243285569474,-122.43735592709122,Comic Shop,False,True
14,Christopher's Books,4a3d5e50f964a5202da21fe3,37.76258473408882,-122.39660541203637,Bookstore,False,True
15,Green Apple Books,42717900f964a52076211fe3,37.78302094764066,-122.46461446474054,Bookstore,False,True
16,SF Center for the Book,4a2821d8f964a520f8941fe3,37.765349532269234,-122.40259616882284,Art Gallery,False,True
17,Omnivore Books on Food,4a0302d0f964a5207a711fe3,37.74769626662204,-122.4268247338954,Bookstore,False,True
18,Kinokuniya Bookstore,4a1babcbf964a520047b1fe3,37.784937664521735,-122.43167202047937,Bookstore,True,False
19,Manny’s,5bb90fcca35dce002c8e8181,37.76514534704623,-122.42186793983937,Coffee Shop,True,True
20,William Stout Architectural Books,4b1843cef964a520decf23e3,37.79659805209962,-122.4034649105084,Bookstore,True,True
21,Mechanics' Institute,49f786d5f964a520af6c1fe3,37.78898682712821,-122.40300310614425,Library,True,True
22,Books & Bookshelves,4b05f3a0f964a52070e622e3,37.76776385110286,-122.4309931267747,Furniture / Home Store,True,True
23,Adobe Books & Art Cooperative,51f5b314498e7ce07169b2d1,37.75251387116764,-122.41476161418653,Bookstore,True,True
24,needles and pens,543b0d19498e162399a2ab71,37.75418585366798,-122.42079923841392,Art Gallery,True,True
25,The Bindery,58435d3f561ded1024d0392d,37.76942151374742,-122.45129922972137,Bookstore,True,True
26,Green Apple Books & Le Video,42829c80f964a52021221fe3,37.765430715304,-122.46651956114654,Bookstore,True,True
27,Adobe Bookshop,4a73c166f964a52062dd1fe3,37.76493985121264,-122.42344448866608,Bookstore,True,True
28,Bird & Beckett Books,4ad389a0f964a520c9e420e3,37.73448180460381,-122.43298472129973,Bookstore,True,False
29,The Magazine,4cbf662e19ceb1f7ed2123cd,37.78642796884074,-122.41809811206784,Bookstore,True,True
30,Chronicle Books,49d805e1f964a520945d1fe3,37.78106550754665,-122.39115258380346,Bookstore,False,True
31,Books Inc,4a088baaf964a520e2731fe3,37.78632567063055,-122.45181233663317,Bookstore,False,True
32,JUICY NEWS SF,4afc7e57f964a520422322e3,37.79234653349657,-122.43453804515133,Newsstand,False,True
33,Book Passage,49cfd27df964a520d05a1fe3,37.79572380650475,-122.3934515336519,Bookstore,True,True
34,Books Inc.,4a6cee37f964a52018d21fe3,37.800243270181305,-122.44040697334252,Bookstore,False,True
35,Moleskine,55a2ece4498ebf3dc3d491a3,37.7885305776216,-122.40261036491435,Leather Goods Store,True,True
36,Noe Valley Branch Library,4a5f9527f964a520e2bf1fe3,37.75040415966416,-122.43514268896102,Library,True,False
37,Bound Together Anarchist Collective Bookstore,4aa308a3f964a520134320e3,37.77028033608465,-122.44483277996619,Bookstore,False,True
38,Russian Hill Bookstore,4adba1bcf964a5208e2921e3,37.79742154577791,-122.42204428590358,Bookstore,False,True
39,Fog City News,4ab2632bf964a5200a6b20e3,37.79111893421618,-122.3989809923987,Newsstand,True,True
40,Chronicle Books,4ab6a9f9f964a5207a7820e3,37.7838409985546,-122.40336147853009,Bookstore,True,True
41,Book Bay Fort Mason,4b9c0e13f964a520504536e3,37.80646506266367,-122.43127586118054,Bookstore,True,True
42,Park Life,458403fdf964a5208e3f1fe3,37.78308647266149,-122.46165835038073,Art Gallery,False,True
43,Folio Books,527fe24411d269e8cef13103,37.75160207595107,-122.43090160973678,Bookstore,True,True
44,Schein & Schein Antique Maps & Prints,4aff349bf964a520e23522e3,37.80013120458191,-122.4074762021272,Antique Shop,True,True
45,Eureka Valley/Harvey Milk Memorial Branch Library,4ae74a94f964a52019aa21e3,37.76421915934024,-122.43228017153746,Library,False,True
46,The Beat Museum,49ff1e32f964a520cd6f1fe3,37.797961525897485,-122.40619391283143,Museum,True,True
47,Go! Games,4b2d83cbf964a5202ed824e3,37.78436389753621,-122.40622861566216,Bookstore,True,True
48,Forest Books,50f74bc1e4b024e803baf823,37.786242692920126,-122.42996879868612,Bookstore,True,False
49,Marina Branch Library,4a552a75f964a520c3b31fe3,37.80123636230909,-122.43407783618086,Library,False,False
50,Crossroads Café,40f86c00f964a520c30a1fe3,37.782959,-122.389008,Café,False,True
51,Good Vibrations,4710bf01f964a520984b1fe3,37.76319458096596,-122.4217345739337,Adult Boutique,True,True
52,Bookshop West Portal,4a947010f964a5209b2120e3,37.74005509155272,-122.46680176469428,Bookstore,True,False
53,Borderlands Cafe,4b2c56d5f964a52005c624e3,37.759024438242896,-122.42147332646952,Café,True,True
54,Peet's Coffee & Tea,49ee7fe2f964a52064681fe3,37.78172207,-122.4208706,Coffee Shop,True,True
55,Amazing Fantasy,4ac67376f964a52061b420e3,37.76416336999761,-122.46504071401354,Comic Shop,True,True
56,New People,4a870653f964a5202d0220e3,37.78550849656675,-122.43046863978817,Gift Shop,True,False
57,Japan Center,4add3ff0f964a520c06421e3,37.78519611181109,-122.43028217932412,Shopping Mall,True,False
58,Caffe Trieste,43bfc471f964a520222d1fe3,37.79867045512045,-122.40733865973733,Coffee Shop,True,True
59,Jacquie Mortz,54d87fc3498e632ed4c346d2,37.77505678240509,-122.41932392120361,Bookstore,False,True
60,Glen Park Branch Library,4a7a377ff964a520e7e81fe3,37.733962377571,-122.43391361894778,Library,True,False
61,Zen Center Book Store,4bda08d663c5c9b6855e2268,37.773712757792424,-122.42600129028781,Bookstore,False,True
62,Black Bird Bookstore,593d9dcd1c0b3415efd0b3ee,37.7603401482805,-122.50541175966451,Bookstore,False,False
63,UC Hastings College of the Law: Law Library,4b5343bff964a520d39427e3,37.78071618338052,-122.4154513787728,College Library,True,True
64,Great Overland Book Company,4ab555a2f964a520067420e3,37.76217191438852,-122.4659935329497,Bookstore,True,True
65,Electric Works,4a623b02f964a52074c31fe3,37.77708125369456,-122.41268643081375,Art Gallery,False,True
66,Forest Books,4bc9350b937ca5938588a592,37.76497942908034,-122.42142256427705,Bookstore,True,True
67,Stevens Books SF,5b977c4b23a2e6002b4050e7,37.77559951996455,-122.43301391601562,Bookstore,False,False
68,Wittenborn Art Books,4e77adab62e1263517655bbd,37.785769466732724,-122.42204156368989,Bookstore,False,False
69,Hektar Funta,53aa4ad4498ecad91b7ea6b4,37.78331613854221,-122.41005420684814,Bookstore,True,True
70,Marcus Books,4b6a3253f964a5209dcc2be3,37.785542,-122.43315,Bookstore,True,False
71,Owl Cave,57f9a4b2498ef00e714b400d,37.762718,-122.414259,Bookstore,True,True
72,Friends of SFPL Donation Center,4ad0e583f964a520dfda20e3,37.762799,-122.413822,Bookstore,True,True
73,San Francisco Antiquarian Book & Paper Fair,4f2c0c33e4b01c385df3a527,37.771996790473935,-122.40350186354492,Bookstore,False,True
74,City College Bookstore,4e67d00e81dcaba7cca715de,37.774077484048725,-122.446003099057,College Bookstore,False,False
75,My Kindle,501b4d54011c9f689451fd47,37.787046961902746,-122.41200685501097,Bookstore,True,True
76,Bookstore,511f4877e4b07e6425c917a9,37.781060594893326,-122.41585314273834,College Bookstore,True,True
77,McSweeny's Pop-Up,545542ed498ec11b24103b3f,37.76062855006496,-122.42161018780318,Bookstore,True,True
78,Goteblüd,4dc5e410ae608779d147e666,37.76062506318013,-122.42157700496922,Bookstore,True,True
79,Argonaut Book Shop,4c2f8b4ced37a593f4756703,37.788556,-122.413261,Bookstore,True,True
80,Take a book.  Leave a book.,50270cb6e4b0b57d71f49bc8,37.790773622872905,-122.41954177110689,Bookstore,False,True
81,John Windle Antiquarian Bookseller,50c3a652e4b065e8ebf43e8d,37.78653335571289,-122.40497589111328,Bookstore,True,True
82,Ourshelves Lending Library,50720681e4b09822b97ae43c,37.756973,-122.421361,Bookstore,True,True
83,Auto Erotica,4c9d899e0df79c740a3f181a,37.760924963771686,-122.43465022926868,Bookstore,True,True
84,Cartoon Art Museum Bookstore,512559e6e4b0fd1be3c980a5,37.78687950446475,-122.40112885560086,Bookstore,True,True
85,Arkipelago Bookstore,4d0a858bf608721e97b0360f,37.78064841886407,-122.40914874330397,Bookstore,True,True
86,Hope's Book Store,4c8ee91aa8de224b4f9d2b01,37.79545219307607,-122.41774984776832,Bookstore,False,False
87,Paulist Center,4b788c9af964a52008d62ee3,37.792567,-122.406006,Bookstore,True,True
88,G. F. Wilkinson Books,52e300ac498ed7af4504ba2c,37.79085836979964,-122.40289340507375,Bookstore,True,True
89,World Books,51fd9c88498eeb50ff8bea80,37.79349740060399,-122.40796009729473,Bookstore,True,False
90,Ai Bookstore,4bc62a0551b376b04d191b6f,37.7817967,-122.4103645,College Bookstore,True,True
91,Golden Gate University Bookstore,4cf5260ca41a60fc5d2b2fc0,37.78959811229478,-122.39889408588562,College Bookstore,True,True
92,Colpa Press,5ab8459db1ec136b2c0e68b8,37.793584,-122.404263,Bookstore,True,True
93,Farfaria,50aae517e4b0d787d00fffa9,37.79355284546451,-122.40323635482677,Bookstore,True,True
94,Ng Hing Kee,51042b34e4b081fc42d6a25c,37.795994716399804,-122.40610160099138,Bookstore,True,True
95,Books Inc,4bf5b9634d5f20a1de0398fe,37.750510761719134,-122.40260576893468,Bookstore,False,False
96,Naiin Thai Bookstore,4beb049062c0c9283997e1d4,37.78487597542037,-122.41830503098966,Bookstore,True,True
97,Good News,4a57a08ef964a5207eb61fe3,37.751575467097155,-122.4302351454993,Bookstore,True,True
98,Sino-American Books & Arts,52cbb03d498efb6b1d7bc6f4,37.79994529477534,-122.42016672483237,Bookstore,False,True
99,Goody Cafe,501450b8e4b080ff6b63c9d7,37.80639149819466,-122.43134178632758,Coffee Shop,True,True
100,Eastwind Books 東風書店,4c424c94ff711b8d265e1305,37.79906056540195,-122.408867208558,Bookstore,True,True
101,Zinio,4b91b924f964a520b1d233e3,37.791245876051676,-122.40018804055593,Financial or Legal Service,True,True
102,Alcatraz Bookstore,4ded68a4c65bf34fc6d5163e,37.82673034765291,-122.42106643945168,Bookstore,False,False
103,Libreria Italiana Pino,5998e208340a58724eb57844,37.799934,-122.40745,Bookstore,True,True
104,San Francisco Mystery Bookstore,4b19b557f964a52071e223e3,37.75120038839767,-122.43581700722949,Bookstore,True,False
105,The Grand Newsstand,556f653a498e200df87f880e,37.79437689394596,-122.39509376205635,Bookstore,True,True
106,City College Bookstore,4e67ca1381dcaba7cca66c04,37.784203,-122.404602,College Bookstore,True,True
107,Modern Times Bookstore,49baf02cf964a520c7531fe3,37.758811,-122.421323,Bookstore,True,True
108,Children's Book Project,4f298353e4b09b0140c12ca5,37.746150327822555,-122.40161009930203,Bookstore,False,False
109,City College Bookstore,4e67cebf81dcaba7cca6f0a3,37.755247317808426,-122.419915084603,College Bookstore,True,True
110,USF - Bookstore,4c33a6dd66e40f471b5ac88b,37.776582551282594,-122.4498985910964,College Bookstore,True,False
111,UCSF Technology Store,4bc8aa466501c9b6d4a04029,37.763441,-122.45801210403442,College Bookstore,False,False
112,KingSpoke Maritime Store,4b788f41f964a520c7d62ee3,37.80775808460429,-122.42086887359618,Gift Shop,False,True
113,Louie Bros Bookstore,53000302498eed30c0088edc,37.795284,-122.406291,Bookstore,True,True
114,USF Follett Bookstore,4d49effd5129a35de7db3eac,37.7773747485532,-122.44876681746133,Bookstore,True,False
115,De Young Gift Shop,4dd830ede4cd37c893bf9acb,37.771449689447856,-122.46822311954327,Gift Shop,False,False
116,Readers Cafe & Bookstore,5139335ee4b0bd1feef4bacd,37.806469185542014,-122.43137364929221,Bookstore,True,True
117,West Portal Daily,4b33fcf8f964a520762325e3,37.74048297769161,-122.46644765138626,Bookstore,True,False
118,Garden Bookstore,56e5e7f6498eb603a13e7884,37.767129,-122.467129,Bookstore,True,False
119,City College Bookstore-Conlan Hall,4e67c87a81dcaba7cca63f4e,37.72413323680191,-122.45141028838809,College Bookstore,True,False
120,The Bookmark Bookstore,4be7140a910020a1e1fed414,37.80041788402868,-122.27529150049689,Bookstore,False,False
121,Bookstore,4e3844a5149579ccbaf6319c,37.725658131501994,-122.45074066586211,Bookstore,True,False
122,American Management Association,4c6ab30735d3be9a3c7d2206,37.78509521484375,-122.40477752685547,Building,True,True
123,USF - Crossroads Café,4b72ec98f964a52000902de3,37.77652674530763,-122.44996227853814,College Cafeteria,True,False
124,City College Bookstore Annex,4b6a02a0f964a5209ac12be3,37.724027173309096,-122.45256807200656,College Bookstore,True,False
125,SFSU Bookstore,4a773a49f964a520e6e31fe3,37.722591733502405,-122.47839689254761,Bookstore,False,False
126,Dark Carnival Imaginative Fiction Bookstore,4bdb24443904a5938af5489e,37.85442975605492,-122.2482338134164,Bookstore,False,False
127,E.M. Wolfman Bookstore,536059fb11d2781b03da293d,37.80325929016895,-122.27064637279715,Bookstore,False,False
128,Bookstore - Skyline College,4bcdd6edb6c49c74b0019691,37.629956375106,-122.46804978357775,College Bookstore,False,False
129,Saint Mary's College of California Bookstore,4d79609694966a31e3555911,37.840138996236895,-122.10902999355359,College Bookstore,False,False
130,Bulldog Bookstore,4c7d313d5af8b60c0fcd8e10,37.53673375498665,-122.33551025390625,College Bookstore,False,False
